[
  {
    "file_name": "Jaisalmer_7733.tif",
    "location": "Jaisalmer_7733",
    "method": "Random-Forest-Grid-search",
    "image_url": "classified_map_337.png",
    "new_classified_url": "new-classified_337.png",
    "classified_tiff_url": "new-classified_337.tiff",
    "timestamp": "2026-03-14T06:35:19.849836Z"
  },
  {
    "file_name": "Jalna_3450.tif",
    "location": "Jalna_3450",
    "method": "Random-Forest-Random-search",
    "image_url": "classified_map_544.png",
    "new_classified_url": "new-classified_544.png",
    "classified_tiff_url": "new-classified_544.tiff",
    "timestamp": "2026-03-14T06:37:58.837364Z"
  },
  {
    "file_name": "MNIT_8038.tif",
    "location": "MNIT_8038",
    "method": "Support-Vector-Machine-Grid-Search",
    "image_url": "classified_map_514.png",
    "new_classified_url": "new-classified_514.png",
    "classified_tiff_url": "new-classified_514.tiff",
    "timestamp": "2026-03-14T06:38:38.835123Z"
  },
  {
    "file_name": "MNIT_8038.tif",
    "location": "MNIT_8038",
    "method": "Support-Vector-Machine-Grid-Search",
    "image_url": "classified_map_346.png",
    "new_classified_url": "new-classified_346.png",
    "classified_tiff_url": "new-classified_346.tiff",
    "timestamp": "2026-03-14T06:45:06.301840Z",
    "center_lat": 26.862277,
    "center_lon": 75.815025
  },
  {
    "file_name": "MNIT_6179.tif",
    "location": "MNIT_6179",
    "method": "Random-Forest-Random-search",
    "image_url": "classified_map_36.png",
    "new_classified_url": "new-classified_36.png",
    "classified_tiff_url": "new-classified_36.tiff",
    "timestamp": "2026-03-14T06:53:32.073735Z",
    "center_lat": 26.865962,
    "center_lon": 75.807675
  },
  {
    "file_name": "MNIT_6179.tif",
    "location": "MNIT_6179",
    "method": "Random-Forest-Random-search",
    "image_url": "classified_map_313.png",
    "new_classified_url": "new-classified_313.png",
    "classified_tiff_url": "new-classified_313.tiff",
    "timestamp": "2026-03-14T06:55:31.465247Z",
    "center_lat": 26.865962,
    "center_lon": 75.807675
  },
  {
    "file_name": "Jaisalmer_7733.tif",
    "location": "Jaisalmer_7733",
    "method": "Support-Vector-Machine-Grid-Search",
    "image_url": "classified_map_801.png",
    "new_classified_url": "new-classified_801.png",
    "classified_tiff_url": "new-classified_801.tiff",
    "timestamp": "2026-03-14T06:55:51.371755Z",
    "center_lat": 26.909169,
    "center_lon": 70.915479
  },
  {
    "file_name": "MNIT_6179.tif",
    "location": "MNIT_6179",
    "method": "Support-Vector-Machine-Grid-Search",
    "image_url": "classified_map_608.png",
    "new_classified_url": "new-classified_608.png",
    "classified_tiff_url": "new-classified_608.tiff",
    "timestamp": "2026-03-14T06:56:15.490979Z",
    "center_lat": 26.865962,
    "center_lon": 75.807675
  },
  {
    "file_name": "Secunderabad_2024-02-01.tif",
    "location": "Secunderabad_2024-02-01",
    "method": "Support-Vector-Machine-Bayes-Search",
    "image_url": "classified_map_8141.png",
    "new_classified_url": "new-classified_8141.png",
    "classified_tiff_url": "new-classified_8141.tiff",
    "timestamp": "2026-03-14T07:02:29.653856Z",
    "center_lat": 17.426657,
    "center_lon": 78.477003
  },
  {
    "file_name": "Karimnagar_2024-01-01.tif",
    "location": "Karimnagar_2024-01-01",
    "method": "Random-Forest-Grid-search",
    "image_url": "classified_map_2156.png",
    "new_classified_url": "new-classified_2156.png",
    "classified_tiff_url": "new-classified_2156.tiff",
    "timestamp": "2026-03-14T08:38:45.932589Z",
    "center_lat": 18.4348,
    "center_lon": 79.13062
  },
  {
    "file_name": "nagpur_2023-04-01.tif",
    "location": "nagpur_2023-04-01",
    "method": "Random-Forest-Random-search",
    "image_url": "classified_map_2656.png",
    "new_classified_url": "new-classified_2656.png",
    "classified_tiff_url": "new-classified_2656.tiff",
    "timestamp": "2026-03-14T09:25:48.527576Z",
    "center_lat": 21.142524,
    "center_lon": 79.086285
  },
  {
    "file_name": "nagpur_2023-03-01.tif",
    "location": "nagpur_2023-03-01",
    "method": "Random-Forest-Random-search",
    "image_url": "classified_map_7973.png",
    "new_classified_url": "new-classified_7973.png",
    "classified_tiff_url": "new-classified_7973.tiff",
    "timestamp": "2026-03-14T09:26:34.273626Z",
    "center_lat": 21.151472,
    "center_lon": 79.077825
  },
  {
    "file_name": "Adilabad_2022-01-01.tif",
    "location": "Adilabad_2022-01-01",
    "method": "Random-Forest-Grid-search",
    "image_url": "classified_map_2928.png",
    "new_classified_url": "new-classified_2928.png",
    "classified_tiff_url": "new-classified_2928.tiff",
    "timestamp": "2026-03-14T09:56:25.566178Z",
    "center_lat": 19.674787,
    "center_lon": 78.529179
  },
  {
    "file_name": "Pedda Kadabur_2022-02-01.tif",
    "location": "Pedda Kadabur_2022-02-01",
    "method": "Random-Forest-Grid-search",
    "image_url": "classified_map_3542.png",
    "new_classified_url": "new-classified_3542.png",
    "classified_tiff_url": "new-classified_3542.tiff",
    "timestamp": "2026-03-14T09:57:37.715594Z",
    "center_lat": 15.747588,
    "center_lon": 77.348004
  },
  {
    "file_name": "Srikakulam_2022-02-01.tif",
    "location": "Srikakulam_2022-02-01",
    "method": "Random-Forest-Grid-search",
    "image_url": "classified_map_5574.png",
    "new_classified_url": "new-classified_5574.png",
    "classified_tiff_url": "new-classified_5574.tiff",
    "timestamp": "2026-03-14T09:59:11.742922Z",
    "center_lat": 18.542448,
    "center_lon": 84.237518
  },
  {
    "file_name": "Chindwara_2022-01-01.tif",
    "location": "Chindwara_2022-01-01",
    "method": "Random-Forest-Grid-search",
    "image_url": "classified_map_3657.png",
    "new_classified_url": "new-classified_3657.png",
    "classified_tiff_url": "new-classified_3657.tiff",
    "timestamp": "2026-03-14T10:28:31.979731Z",
    "center_lat": 22.060599,
    "center_lon": 78.943706
  },
  {
    "file_name": "Machlipatnam_2023-02-01.tif",
    "location": "Machlipatnam_2023-02-01",
    "method": "Random-Forest-Grid-search",
    "image_url": "classified_map_1820.png",
    "new_classified_url": "new-classified_1820.png",
    "classified_tiff_url": "new-classified_1820.tiff",
    "timestamp": "2026-03-14T10:45:38.114041Z",
    "center_lat": 16.070449,
    "center_lon": 81.163341
  },
  {
    "file_name": "Racherla_2024-01-01.tif",
    "location": "Racherla_2024-01-01",
    "method": "Support-Vector-Machine-Grid-Search",
    "image_url": "classified_map_3304.png",
    "new_classified_url": "new-classified_3304.png",
    "classified_tiff_url": "new-classified_3304.tiff",
    "timestamp": "2026-03-14T10:51:51.647607Z",
    "center_lat": 15.467966,
    "center_lon": 78.960707
  },
  {
    "file_name": "Erode_2023-01-01.tif",
    "location": "Erode_2023-01-01",
    "method": "Random-Forest-Grid-search",
    "image_url": "classified_map_3137.png",
    "new_classified_url": "new-classified_3137.png",
    "classified_tiff_url": "new-classified_3137.tiff",
    "timestamp": "2026-03-14T10:57:32.317164Z",
    "center_lat": 11.32787,
    "center_lon": 77.727199
  },
  {
    "file_name": "Sambalur_2023-06-09.tif",
    "location": "Sambalur_2023-06-09",
    "method": "Random-Forest-Grid-search",
    "image_url": "classified_map_6478.png",
    "new_classified_url": "new-classified_6478.png",
    "classified_tiff_url": "new-classified_6478.tiff",
    "timestamp": "2026-03-14T11:01:05.571633Z",
    "center_lat": 21.466557,
    "center_lon": 83.946801
  },
  {
    "file_name": "Devdurga_2023-04-09.tif",
    "location": "Devdurga_2023-04-09",
    "method": "Random-Forest-Grid-search",
    "image_url": "classified_map_8186.png",
    "new_classified_url": "new-classified_8186.png",
    "classified_tiff_url": "new-classified_8186.tiff",
    "timestamp": "2026-03-14T11:02:14.986293Z",
    "center_lat": 16.391693,
    "center_lon": 76.96122
  },
  {
    "file_name": "NAGDA_2023-04-01.tif",
    "location": "NAGDA_2023-04-01",
    "method": "Random-Forest-Bayesian-Search",
    "image_url": "classified_map_6293.png",
    "new_classified_url": "new-classified_6293.png",
    "classified_tiff_url": "new-classified_6293.tiff",
    "timestamp": "2026-03-14T11:30:17.387014Z",
    "center_lat": 23.45325,
    "center_lon": 75.408521
  },
  {
    "file_name": "Solapur_2023-01-01.tif",
    "location": "Solapur_2023-01-01",
    "method": "Support-Vector-Machine-Grid-Search",
    "image_url": "classified_map_1806.png",
    "new_classified_url": "new-classified_1806.png",
    "classified_tiff_url": "new-classified_1806.tiff",
    "timestamp": "2026-03-14T11:41:42.340392Z",
    "center_lat": 17.671838,
    "center_lon": 75.906519
  },
  {
    "file_name": "MniT_2023-02-01.tif",
    "location": "MniT_2023-02-01",
    "method": "Support-Vector-Machine-Bayes-Search",
    "image_url": "classified_map_4115.png",
    "new_classified_url": "new-classified_4115.png",
    "classified_tiff_url": "new-classified_4115.tiff",
    "timestamp": "2026-03-14T11:50:11.008468Z",
    "center_lat": 26.862005,
    "center_lon": 75.812781
  },
  {
    "file_name": "Metpali_2023-02-01.tif",
    "location": "Metpali_2023-02-01",
    "method": "Support-Vector-Machine-Grid-Search",
    "image_url": "classified_map_7032.png",
    "new_classified_url": "new-classified_7032.png",
    "classified_tiff_url": "new-classified_7032.tiff",
    "timestamp": "2026-03-14T12:20:33.664584Z",
    "center_lat": 18.846241,
    "center_lon": 78.62191
  },
  {
    "file_name": "Medchal_2024-04-01.tif",
    "location": "Medchal_2024-04-01",
    "method": "Random-Forest-Grid-search",
    "image_url": "classified_map_1736.png",
    "new_classified_url": "new-classified_1736.png",
    "classified_tiff_url": "new-classified_1736.tiff",
    "timestamp": "2026-03-15T08:32:13.655820Z",
    "center_lat": 17.633057,
    "center_lon": 78.485195
  },
  {
    "file_name": "Mahbubnagar_2023-05-01.tif",
    "location": "Mahbubnagar_2023-05-01",
    "method": "Support-Vector-Machine-Grid-Search",
    "image_url": "classified_map_9634.png",
    "new_classified_url": "new-classified_9634.png",
    "classified_tiff_url": "new-classified_9634.tiff",
    "timestamp": "2026-03-15T09:39:00.347063Z",
    "center_lat": 16.753539,
    "center_lon": 78.017882
  },
  {
    "file_name": "Mahbubnagar_2020-02-01.tif",
    "location": "Mahbubnagar_2020-02-01",
    "method": "Random-Forest-Grid-search",
    "image_url": "classified_map_9551.png",
    "new_classified_url": "new-classified_9551.png",
    "classified_tiff_url": "new-classified_9551.tiff",
    "timestamp": "2026-03-15T09:49:24.103480Z",
    "center_lat": 16.757736,
    "center_lon": 78.027227
  },
  {
    "file_name": "Jaisalmer_7733.tif",
    "location": "Jaisalmer_7733",
    "method": "Random-Forest-Grid-search",
    "image_url": "classified_map_269.png",
    "new_classified_url": "new-classified_269.png",
    "classified_tiff_url": "new-classified_269.tiff",
    "timestamp": "2026-03-15T09:50:52.215585Z",
    "center_lat": 26.909169,
    "center_lon": 70.915479
  },
  {
    "file_name": "Vijaywada_2021-05-01.tif",
    "location": "Vijaywada_2021-05-01",
    "method": "Random-Forest-Grid-search",
    "image_url": "classified_map_9420.png",
    "new_classified_url": "new-classified_9420.png",
    "classified_tiff_url": "new-classified_9420.tiff",
    "timestamp": "2026-03-16T05:36:45.762878Z",
    "center_lat": 16.518225,
    "center_lon": 80.635889
  },
  {
    "file_name": "siddipet_2020-01-01.tif",
    "location": "siddipet_2020-01-01",
    "method": "Random-Forest-Grid-search",
    "image_url": "classified_map_6194.png",
    "new_classified_url": "new-classified_6194.png",
    "classified_tiff_url": "new-classified_6194.tiff",
    "timestamp": "2026-03-20T11:49:00.271029Z",
    "center_lat": 18.101697,
    "center_lon": 78.844967
  },
  {
    "file_name": "Gonda_2021-01-01.tif",
    "location": "Gonda_2021-01-01",
    "method": "Random-Forest-Grid-search",
    "image_url": "classified_map_8637.png",
    "new_classified_url": "new-classified_8637.png",
    "classified_tiff_url": "new-classified_8637.tiff",
    "timestamp": "2026-03-21T13:43:14.176459Z",
    "center_lat": 21.463305,
    "center_lon": 80.183117
  },
  {
    "file_name": "Jaisalmer_7733.tif",
    "location": "Jaisalmer_7733",
    "method": "Random-Forest-Grid-search",
    "image_url": "classified_map_630.png",
    "new_classified_url": "new-classified_630.png",
    "classified_tiff_url": "new-classified_630.tiff",
    "timestamp": "2026-03-21T13:46:55.419998Z",
    "center_lat": 26.909169,
    "center_lon": 70.915479
  },
  {
    "file_name": "Bhubaneshwar_7365 (1).tif",
    "location": "Bhubaneshwar_7365 (1)",
    "method": "Support-Vector-Machine-Grid-Search",
    "image_url": "classified_map_50.png",
    "new_classified_url": "new-classified_50.png",
    "classified_tiff_url": "new-classified_50.tiff",
    "timestamp": "2026-03-21T13:50:22.880600Z",
    "center_lat": 20.296311,
    "center_lon": 85.782821
  },
  {
    "file_name": "Sadasivapet_1877 (1).tif",
    "location": "Sadasivapet_1877 (1)",
    "method": "Random-Forest-Grid-search",
    "image_url": "classified_map_858.png",
    "new_classified_url": "new-classified_858.png",
    "classified_tiff_url": "new-classified_858.tiff",
    "timestamp": "2026-03-21T13:51:08.078563Z",
    "center_lat": 17.619286,
    "center_lon": 77.946727
  },
  {
    "file_name": "Amravati_2021-01-01.tif",
    "location": "Amravati_2021-01-01",
    "method": "Random-Forest-Grid-search",
    "image_url": "classified_map_2667.png",
    "new_classified_url": "new-classified_2667.png",
    "classified_tiff_url": "new-classified_2667.tiff",
    "timestamp": "2026-03-21T16:00:15.529451Z",
    "center_lat": 20.926928,
    "center_lon": 77.740699
  },
  {
    "file_name": "gangtok_2023-01-01.tif",
    "location": "gangtok_2023-01-01",
    "method": "Random-Forest-Grid-search",
    "image_url": "classified_map_7610.png",
    "new_classified_url": "new-classified_7610.png",
    "classified_tiff_url": "new-classified_7610.tiff",
    "timestamp": "2026-03-21T16:32:35.491232Z",
    "center_lat": 27.326159,
    "center_lon": 88.603125
  },
  {
    "file_name": "Jaisalmer_7733.tif",
    "location": "Jaisalmer_7733",
    "method": "Random-Forest-Grid-search",
    "image_url": "classified_map_594.png",
    "new_classified_url": "new-classified_594.png",
    "classified_tiff_url": "new-classified_594.tiff",
    "timestamp": "2026-03-21T16:38:01.162576Z",
    "center_lat": 26.909169,
    "center_lon": 70.915479
  },
  {
    "file_name": "Mandla_2022-01-01.tif",
    "location": "Mandla_2022-01-01",
    "method": "Random-Forest-Grid-search",
    "image_url": "classified_map_8491.png",
    "new_classified_url": "new-classified_8491.png",
    "classified_tiff_url": "new-classified_8491.tiff",
    "timestamp": "2026-03-24T05:59:49.273140Z",
    "center_lat": 17.91158,
    "center_lon": 77.506304
  },
  {
    "file_name": "kamareddy_2022-01-01.tif",
    "location": "kamareddy_2022-01-01",
    "method": "Random-Forest-Grid-search",
    "image_url": "classified_map_8598.png",
    "new_classified_url": "new-classified_8598.png",
    "classified_tiff_url": "new-classified_8598.tiff",
    "timestamp": "2026-03-24T06:01:40.553076Z",
    "center_lat": 18.311888,
    "center_lon": 78.317013
  },
  {
    "file_name": "kamareddy_2021-01-01.tif",
    "location": "kamareddy_2021-01-01",
    "method": "Random-Forest-Grid-search",
    "image_url": "classified_map_5582.png",
    "new_classified_url": "new-classified_5582.png",
    "classified_tiff_url": "new-classified_5582.tiff",
    "timestamp": "2026-03-24T06:02:34.166670Z",
    "center_lat": 18.315068,
    "center_lon": 78.327726
  },
  {
    "file_name": "Jaisalmer_7733.tif",
    "location": "Jaisalmer_7733",
    "method": "Random-Forest-Grid-search",
    "image_url": "classified_map_722.png",
    "new_classified_url": "new-classified_722.png",
    "classified_tiff_url": "new-classified_722.tiff",
    "timestamp": "2026-03-24T06:05:23.718928Z",
    "center_lat": 26.909169,
    "center_lon": 70.915479
  },
  {
    "file_name": "Haliya_2021-01-01.tif",
    "location": "Haliya_2021-01-01",
    "method": "Random-Forest-Grid-search",
    "image_url": "classified_map_2040.png",
    "new_classified_url": "new-classified_2040.png",
    "classified_tiff_url": "new-classified_2040.tiff",
    "timestamp": "2026-03-29T06:42:43.802573Z",
    "center_lat": 16.781116,
    "center_lon": 79.319226
  },
  {
    "file_name": "Jhansi_2021-01-01.tif",
    "location": "Jhansi_2021-01-01",
    "method": "Support-Vector-Machine-Grid-Search",
    "image_url": "classified_map_2669.png",
    "new_classified_url": "new-classified_2669.png",
    "classified_tiff_url": "new-classified_2669.tiff",
    "timestamp": "2026-04-02T05:01:08.568275Z",
    "center_lat": 25.471146,
    "center_lon": 78.533148
  },
  {
    "file_name": "Adilabad_2021-01-01.tif",
    "location": "Adilabad_2021-01-01",
    "method": "Random-Forest-Grid-search",
    "image_url": "classified_map_7360.png",
    "new_classified_url": "new-classified_7360.png",
    "classified_tiff_url": "new-classified_7360.tiff",
    "timestamp": "2026-04-02T05:03:26.350092Z",
    "center_lat": 19.667592,
    "center_lon": 78.541396
  },
  {
    "file_name": "Jhansi_2239.tif",
    "location": "Jhansi_2239",
    "method": "Support-Vector-Machine-Grid-Search",
    "image_url": "classified_map_142.png",
    "new_classified_url": "new-classified_142.png",
    "classified_tiff_url": "new-classified_142.tiff",
    "timestamp": "2026-04-02T05:13:37.281052Z",
    "center_lat": 25.46899,
    "center_lon": 78.566295
  },
  {
    "file_name": "Akkalkuva_7028.tif",
    "location": "Akkalkuva_7028",
    "method": "Random-Forest-Grid-search",
    "image_url": "classified_map_425.png",
    "new_classified_url": "new-classified_425.png",
    "classified_tiff_url": "new-classified_425.tiff",
    "timestamp": "2026-04-02T05:14:03.451026Z",
    "center_lat": 21.526688,
    "center_lon": 74.038382
  },
  {
    "file_name": "Gudur.tif",
    "location": "Gudur",
    "method": "Random-Forest-Random-search",
    "image_url": "classified_map_578.png",
    "new_classified_url": "new-classified_578.png",
    "classified_tiff_url": "new-classified_578.tiff",
    "timestamp": "2026-04-02T05:14:28.701023Z",
    "center_lat": 15.776932,
    "center_lon": 77.805916
  },
  {
    "file_name": "Almasguda_2192.tif",
    "location": "Almasguda_2192",
    "method": "Random-Forest-Grid-search",
    "image_url": "classified_map_310.png",
    "new_classified_url": "new-classified_310.png",
    "classified_tiff_url": "new-classified_310.tiff",
    "timestamp": "2026-04-02T05:14:54.647481Z",
    "center_lat": 17.30573,
    "center_lon": 78.533552
  },
  {
    "file_name": "BHOPAL_2021-01-01.tif",
    "location": "BHOPAL_2021-01-01",
    "method": "Support-Vector-Machine-Grid-Search",
    "image_url": "classified_map_6034.png",
    "new_classified_url": "new-classified_6034.png",
    "classified_tiff_url": "new-classified_6034.tiff",
    "timestamp": "2026-04-06T15:02:05.720290Z",
    "center_lat": 23.27207,
    "center_lon": 77.373378
  },
  {
    "file_name": "Osman Sagar_2021-01-01.tif",
    "location": "Osman Sagar_2021-01-01",
    "method": "Random-Forest-Grid-search",
    "image_url": "classified_map_9186.png",
    "new_classified_url": "new-classified_9186.png",
    "classified_tiff_url": "new-classified_9186.tiff",
    "timestamp": "2026-04-06T15:10:04.870913Z",
    "center_lat": 17.402217,
    "center_lon": 78.303384
  },
  {
    "file_name": "temp_image_802.tif",
    "location": "temp_image_802",
    "method": "Random-Forest-Grid-search",
    "image_url": "classified_map_425.png",
    "new_classified_url": "new-classified_425.png",
    "classified_tiff_url": "new-classified_425.tiff",
    "timestamp": "2026-04-06T15:13:34.632198Z",
    "center_lat": 19.046126,
    "center_lon": 78.395301
  },
  {
    "file_name": "MNIT_8038.tif",
    "location": "MNIT_8038",
    "method": "Random-Forest-Grid-search",
    "image_url": "classified_map_395.png",
    "new_classified_url": "new-classified_395.png",
    "classified_tiff_url": "new-classified_395.tiff",
    "timestamp": "2026-04-06T15:14:16.421928Z",
    "center_lat": 26.862277,
    "center_lon": 75.815025
  },
  {
    "file_name": "Beijing_8225.tif",
    "location": "Beijing_8225",
    "method": "Support-Vector-Machine-Grid-Search",
    "image_url": "classified_map_639.png",
    "new_classified_url": "new-classified_639.png",
    "classified_tiff_url": "new-classified_639.tiff",
    "timestamp": "2026-04-06T15:16:23.626327Z",
    "center_lat": 39.898,
    "center_lon": 116.225738
  },
  {
    "file_name": "OSMAN SAGAR_2021-01-01.tif",
    "location": "OSMAN SAGAR_2021-01-01",
    "method": "Random-Forest-Grid-search",
    "image_url": "classified_map_6099.png",
    "new_classified_url": "new-classified_6099.png",
    "classified_tiff_url": "new-classified_6099.tiff",
    "timestamp": "2026-04-06T16:00:35.065273Z",
    "center_lat": 17.417398,
    "center_lon": 78.310568
  },
  {
    "file_name": "Siddipet_2021-01-01.tif",
    "location": "Siddipet_2021-01-01",
    "method": "Random-Forest-Random-search",
    "image_url": "classified_map_7849.png",
    "new_classified_url": "new-classified_7849.png",
    "classified_tiff_url": "new-classified_7849.tiff",
    "timestamp": "2026-04-06T16:02:29.256548Z",
    "center_lat": 18.018341,
    "center_lon": 78.892012
  },
  {
    "file_name": "Jaisalmer_7733.tif",
    "location": "Jaisalmer_7733",
    "method": "Random-Forest-Grid-search",
    "image_url": "classified_map_410.png",
    "new_classified_url": "new-classified_410.png",
    "classified_tiff_url": "new-classified_410.tiff",
    "timestamp": "2026-04-06T16:04:28.651706Z",
    "center_lat": 26.909169,
    "center_lon": 70.915479
  },
  {
    "file_name": "Kanpur_2021-01-01.tif",
    "location": "Kanpur_2021-01-01",
    "method": "Random-Forest-Random-search",
    "image_url": "classified_map_3742.png",
    "new_classified_url": "new-classified_3742.png",
    "classified_tiff_url": "new-classified_3742.tiff",
    "timestamp": "2026-04-09T10:27:46.074773Z",
    "center_lat": 26.479729,
    "center_lon": 80.335797
  },
  {
    "file_name": "BN Reddy_2023-04-20.tif",
    "location": "BN Reddy_2023-04-20",
    "method": "Random-Forest-Random-search",
    "image_url": "classified_map_4830.png",
    "new_classified_url": "new-classified_4830.png",
    "classified_tiff_url": "new-classified_4830.tiff",
    "timestamp": "2026-04-21T09:59:36.791047Z",
    "center_lat": 17.31477,
    "center_lon": 78.55496
  }
]